[
  {
    "iata": "OTT",
    "lon": "-58.581287",
    "iso": "BR",
    "status": 1,
    "name": "Andre Maggi Airport",
    "continent": "SA",
    "type": "airport",
    "lat": "-9.902215",
    "size": "small"
  },
  {
    "iata": "AQA",
    "lon": "-48.13691",
    "iso": "BR",
    "status": 1,
    "name": "Araraquara Airport",
    "continent": "SA",
    "type": "airport",
    "lat": "-21.806643",
    "size": "medium"
  },
  {
    "iata": "AJU",
    "lon": "-37.072792",
    "iso": "BR",
    "status": 1,
    "name": "Santa Maria Airport",
    "continent": "SA",
    "type": "airport",
    "lat": "-10.987206",
    "size": "medium"
  },
  {
    "iata": "AFL",
    "lon": "-56.104767",
    "iso": "BR",
    "status": 1,
    "name": "Alta Floresta Airport",
    "continent": "SA",
    "type": "airport",
    "lat": "-9.872456",
    "size": "medium"
  },
  {
    "iata": "ARU",
    "lon": "-50.42611",
    "iso": "BR",
    "status": 1,
    "name": "Dario Guarita Airport",
    "continent": "SA",
    "type": "airport",
    "lat": "-21.143612",
    "size": "medium"
  },
  {
    "iata": "BEL",
    "lon": "-48.480003",
    "iso": "BR",
    "status": 1,
    "name": "Val de Cans International Airport",
    "continent": "SA",
    "type": "airport",
    "lat": "-1.389865",
    "size": "large"
  },
  {
    "iata": "BGX",
    "lon": "-54.1125",
    "iso": "BR",
    "status": 1,
    "name": "Comandante Gustavo Kraemer Airport",
    "continent": "SA",
    "type": "airport",
    "lat": "-31.398611",
    "size": "medium"
  },
  {
    "iata": "PLU",
    "lon": "-43.75",
    "iso": "BR",
    "status": 1,
    "name": "Pampulha - Carlos Drummond de Andrade Airport",
    "continent": "SA",
    "type": "airport",
    "lat": "-19.75",
    "size": "medium"
  },
  {
    "iata": "QAK",
    "lon": "-43.88333",
    "iso": "BR",
    "status": 1,
    "name": "Major Brigadeiro Doorgal Borges Airport",
    "continent": "SA",
    "type": "airport",
    "lat": "-21.397223",
    "size": "medium"
  },
  {
    "iata": "BSB",
    "lon": "-47.921486",
    "iso": "BR",
    "status": 1,
    "name": "Presidente Juscelino Kubistschek International Airport",
    "continent": "SA",
    "type": "airport",
    "lat": "-15.869807",
    "size": "large"
  },
  {
    "iata": "BAT",
    "lon": "-48.55",
    "iso": "BR",
    "status": 1,
    "name": "Chafei Amsei Airport",
    "continent": "SA",
    "type": "airport",
    "lat": "-20.55",
    "size": "medium"
  },
  {
    "iata": "BAU",
    "lon": "-49.0525",
    "iso": "BR",
    "status": 1,
    "name": "Bauru Airport",
    "continent": "SA",
    "type": "airport",
    "lat": "-22.343056",
    "size": "medium"
  },
  {
    "iata": "BVB",
    "lon": "-60.666668",
    "iso": "BR",
    "status": 1,
    "name": "Atlas Brasil Cantanhede Airport",
    "continent": "SA",
    "type": "airport",
    "lat": "2.833333",
    "size": "medium"
  },
  {
    "iata": "BZC",
    "lon": "-41.964443",
    "iso": "BR",
    "status": 1,
    "name": "Umberto Modiano Airport",
    "continent": "SA",
    "type": "airport",
    "lat": "-22.769444",
    "size": "medium"
  },
  {
    "iata": "CAC",
    "lon": "-53.466667",
    "iso": "BR",
    "status": 1,
    "name": "Cascavel Airport",
    "continent": "SA",
    "type": "airport",
    "lat": "-24.95",
    "size": "medium"
  },
  {
    "iata": "CFB",
    "lon": "-42.07861",
    "iso": "BR",
    "status": 1,
    "name": "Cabo Frio Airport",
    "continent": "SA",
    "type": "airport",
    "lat": "-22.925",
    "size": "small"
  },
  {
    "iata": "ITB",
    "lon": "-55.983334",
    "iso": "BR",
    "status": 1,
    "name": "Cachimbo Airport",
    "continent": "SA",
    "type": "airport",
    "lat": "-4.283333",
    "size": "medium"
  },
  {
    "iata": "CNF",
    "lon": "-43.963215",
    "iso": "BR",
    "status": 1,
    "name": "Tancredo Neves International Airport",
    "continent": "SA",
    "type": "airport",
    "lat": "-19.632418",
    "size": "large"
  },
  {
    "iata": "CGR",
    "lon": "-54.668873",
    "iso": "BR",
    "status": 1,
    "name": "Campo Grande Airport",
    "continent": "SA",
    "type": "airport",
    "lat": "-20.456991",
    "size": "medium"
  },
  {
    "iata": "XAP",
    "lon": "-52.629723",
    "iso": "BR",
    "status": 1,
    "name": "Serafin Enoss Bertaso Airport",
    "continent": "SA",
    "type": "airport",
    "lat": "-27.088612",
    "size": "medium"
  },
  {
    "iata": "CLN",
    "lon": "-47.45",
    "iso": "BR",
    "status": 1,
    "name": "Brig. Lysias Augusto Rodrigues Airport",
    "continent": "SA",
    "type": "airport",
    "lat": "-7.333333",
    "size": "medium"
  },
  {
    "iata": "CKS",
    "lon": "-50.001945",
    "iso": "BR",
    "status": 1,
    "name": "Carajas Airport",
    "continent": "SA",
    "type": "airport",
    "lat": "-6.114749",
    "size": "medium"
  },
  {
    "iata": "CCM",
    "lon": "-49.36667",
    "iso": "BR",
    "status": 1,
    "name": "Diomicio Freitas Airport",
    "continent": "SA",
    "type": "airport",
    "lat": "-28.7",
    "size": "medium"
  },
  {
    "iata": "CLV",
    "lon": "-48.63333",
    "iso": "BR",
    "status": 1,
    "name": "Caldas Novas Airport",
    "continent": "SA",
    "type": "airport",
    "lat": "-17.75",
    "size": "small"
  },
  {
    "iata": "QNS",
    "lon": "-51.28889",
    "iso": "BR",
    "status": 1,
    "name": "Canoas Airport",
    "continent": "SA",
    "type": "airport",
    "lat": "-30.016666",
    "size": "medium"
  },
  {
    "iata": "CAW",
    "lon": "-41.303482",
    "iso": "BR",
    "status": 1,
    "name": "Bartolomeu Lisandro Airport",
    "continent": "SA",
    "type": "airport",
    "lat": "-21.70016",
    "size": "medium"
  },
  {
    "iata": "CMG",
    "lon": "-57.672222",
    "iso": "BR",
    "status": 1,
    "name": "Corumbá International Airport",
    "continent": "SA",
    "type": "airport",
    "lat": "-19.01111",
    "size": "medium"
  },
  {
    "iata": "CWB",
    "lon": "-49.176544",
    "iso": "BR",
    "status": 1,
    "name": "Afonso Pena Airport",
    "continent": "SA",
    "type": "airport",
    "lat": "-25.5322",
    "size": "medium"
  },
  {
    "iata": "CRQ",
    "lon": "-39.25",
    "iso": "BR",
    "status": 1,
    "name": "Caravelas Airport",
    "continent": "SA",
    "type": "airport",
    "lat": "-17.75",
    "size": "medium"
  },
  {
    "iata": "CXJ",
    "lon": "-51.183334",
    "iso": "BR",
    "status": 1,
    "name": "Campo dos Bugres Airport",
    "continent": "SA",
    "type": "airport",
    "lat": "-29.166668",
    "size": "medium"
  },
  {
    "iata": "CGB",
    "lon": "-56.120266",
    "iso": "BR",
    "status": 1,
    "name": "Marechal Rondon Airport",
    "continent": "SA",
    "type": "airport",
    "lat": "-15.651725",
    "size": "medium"
  },
  {
    "iata": "CZS",
    "lon": "-72.78333",
    "iso": "BR",
    "status": 1,
    "name": "Cruzeiro do Sul Airport",
    "continent": "SA",
    "type": "airport",
    "lat": "-7.583333",
    "size": "medium"
  },
  {
    "iata": "PPB",
    "lon": "-51.45",
    "iso": "BR",
    "status": 1,
    "name": "Presidente Prudente Airport",
    "continent": "SA",
    "type": "airport",
    "lat": "-22.1",
    "size": "medium"
  },
  {
    "iata": "MAO",
    "lon": "-60.046093",
    "iso": "BR",
    "status": 1,
    "name": "Eduardo Gomes International Airport",
    "continent": "SA",
    "type": "airport",
    "lat": "-3.031327",
    "size": "medium"
  },
  {
    "iata": "JCR",
    "lon": "-57.533333",
    "iso": "BR",
    "status": 1,
    "name": "Jacareacanga Airport",
    "continent": "SA",
    "type": "airport",
    "lat": "-5.983333",
    "size": "medium"
  },
  {
    "iata": "IGU",
    "lon": "-54.488823",
    "iso": "BR",
    "status": 1,
    "name": "Cataratas International Airport",
    "continent": "SA",
    "type": "airport",
    "lat": "-25.597937",
    "size": "medium"
  },
  {
    "iata": "FLN",
    "lon": "-48.5452",
    "iso": "BR",
    "status": 1,
    "name": "Hercílio Luz International Airport",
    "continent": "SA",
    "type": "airport",
    "lat": "-27.664446",
    "size": "large"
  },
  {
    "iata": "FEN",
    "lon": "-32.416668",
    "iso": "BR",
    "status": 1,
    "name": "Fernando de Noronha Airport",
    "continent": "SA",
    "type": "airport",
    "lat": "-3.85",
    "size": "medium"
  },
  {
    "iata": "FOR",
    "lon": "-38.540836",
    "iso": "BR",
    "status": 1,
    "name": "Pinto Martins International Airport",
    "continent": "SA",
    "type": "airport",
    "lat": "-3.779073",
    "size": "medium"
  },
  {
    "iata": "GIG",
    "lon": "-43.24651",
    "iso": "BR",
    "status": 1,
    "name": "Tom Jobim International Airport",
    "continent": "SA",
    "type": "airport",
    "lat": "-22.814653",
    "size": "large"
  },
  {
    "iata": "GJM",
    "lon": "-65.36667",
    "iso": "BR",
    "status": 1,
    "name": "Guajara-Mirim Airport",
    "continent": "SA",
    "type": "airport",
    "lat": "-10.783333",
    "size": "medium"
  },
  {
    "iata": "GYN",
    "lon": "-49.226624",
    "iso": "BR",
    "status": 1,
    "name": "Santa Genoveva Airport",
    "continent": "SA",
    "type": "airport",
    "lat": "-16.632631",
    "size": "medium"
  },
  {
    "iata": "GRU",
    "lon": "-46.481926",
    "iso": "BR",
    "status": 1,
    "name": "São Paulo International Airport",
    "continent": "SA",
    "type": "airport",
    "lat": "-23.425669",
    "size": "large"
  },
  {
    "iata": "GPB",
    "lon": "-51.5",
    "iso": "BR",
    "status": 1,
    "name": "Tancredo Thomas de Faria Airport",
    "continent": "SA",
    "type": "airport",
    "lat": "-25.333332",
    "size": "small"
  },
  {
    "iata": "GVR",
    "lon": "-41.933334",
    "iso": "BR",
    "status": 1,
    "name": "Governador Valadares Airport",
    "continent": "SA",
    "type": "airport",
    "lat": "-18.850279",
    "size": "small"
  },
  {
    "iata": "GUJ",
    "lon": "-45.216667",
    "iso": "BR",
    "status": 1,
    "name": "Guaratingueta Airport",
    "continent": "SA",
    "type": "airport",
    "lat": "-22.816668",
    "size": "medium"
  },
  {
    "iata": "ATM",
    "lon": "-52.216667",
    "iso": "BR",
    "status": 1,
    "name": "Altamira Airport",
    "continent": "SA",
    "type": "airport",
    "lat": "-3.2",
    "size": "medium"
  },
  {
    "iata": "ITA",
    "lon": "-58.416668",
    "iso": "BR",
    "status": 1,
    "name": "Itacoatiara Airport",
    "continent": "SA",
    "type": "airport",
    "lat": "-3.133333",
    "size": "medium"
  },
  {
    "iata": "ITB",
    "lon": "-55.983334",
    "iso": "BR",
    "status": 1,
    "name": "Itaituba Airport",
    "continent": "SA",
    "type": "airport",
    "lat": "-4.283333",
    "size": "medium"
  },
  {
    "iata": "IOS",
    "lon": "-39.033268",
    "iso": "BR",
    "status": 1,
    "name": "Bahia - Jorge Amado Airport",
    "continent": "SA",
    "type": "airport",
    "lat": "-14.815859",
    "size": "medium"
  },
  {
    "iata": "IPN",
    "lon": "-42.533333",
    "iso": "BR",
    "status": 1,
    "name": "Usiminas Airport",
    "continent": "SA",
    "type": "airport",
    "lat": "-19.5",
    "size": "medium"
  },
  {
    "iata": "IMP",
    "lon": "-47.480556",
    "iso": "BR",
    "status": 1,
    "name": "Prefeito Renato Moreira Airport",
    "continent": "SA",
    "type": "airport",
    "lat": "-5.531944",
    "size": "medium"
  },
  {
    "iata": "JDF",
    "lon": "-43.333332",
    "iso": "BR",
    "status": 1,
    "name": "Francisco de Assis Airport",
    "continent": "SA",
    "type": "airport",
    "lat": "-21.75",
    "size": "medium"
  },
  {
    "iata": "JPA",
    "lon": "-34.94816",
    "iso": "BR",
    "status": 1,
    "name": "Presidente Castro Pinto Airport",
    "continent": "SA",
    "type": "airport",
    "lat": "-7.145357",
    "size": "medium"
  },
  {
    "iata": "JDO",
    "lon": "-39.316666",
    "iso": "BR",
    "status": 1,
    "name": "Orlando Bezerra de Menezes Airport",
    "continent": "SA",
    "type": "airport",
    "lat": "-7.2",
    "size": "small"
  },
  {
    "iata": "JOI",
    "lon": "-48.783333",
    "iso": "BR",
    "status": 1,
    "name": "Lauro Carneiro de Loyola Airport",
    "continent": "SA",
    "type": "airport",
    "lat": "-26.233334",
    "size": "medium"
  },
  {
    "iata": "CPV",
    "lon": "-35.9",
    "iso": "BR",
    "status": 1,
    "name": "Campina Grande Airport",
    "continent": "SA",
    "type": "airport",
    "lat": "-7.266667",
    "size": "medium"
  },
  {
    "iata": "VCP",
    "lon": "-47.141674",
    "iso": "BR",
    "status": 1,
    "name": "Viracopos International Airport",
    "continent": "SA",
    "type": "airport",
    "lat": "-23.009892",
    "size": "medium"
  },
  {
    "iata": "LEC",
    "lon": "-41.281113",
    "iso": "BR",
    "status": 1,
    "name": "Chapada Diamantina Airport",
    "continent": "SA",
    "type": "airport",
    "lat": "-12.48",
    "size": "small"
  },
  {
    "iata": "LAJ",
    "lon": "-50.316666",
    "iso": "BR",
    "status": 1,
    "name": "Lages Airport",
    "continent": "SA",
    "type": "airport",
    "lat": "-27.8",
    "size": "medium"
  },
  {
    "iata": "LIP",
    "lon": "-49.75",
    "iso": "BR",
    "status": 1,
    "name": "Lins Airport",
    "continent": "SA",
    "type": "airport",
    "lat": "-21.666668",
    "size": "medium"
  },
  {
    "iata": "LDB",
    "lon": "-51.137714",
    "iso": "BR",
    "status": 1,
    "name": "Governador José Richa Airport",
    "continent": "SA",
    "type": "airport",
    "lat": "-23.328457",
    "size": "medium"
  },
  {
    "iata": "LAZ",
    "lon": "-43.4125",
    "iso": "BR",
    "status": 1,
    "name": "Bom Jesus da Lapa Airport",
    "continent": "SA",
    "type": "airport",
    "lat": "-13.256944",
    "size": "medium"
  },
  {
    "iata": "MAB",
    "lon": "-49.166668",
    "iso": "BR",
    "status": 1,
    "name": "João Correa da Rocha Airport",
    "continent": "SA",
    "type": "airport",
    "lat": "-5.366667",
    "size": "medium"
  },
  {
    "iata": "MQH",
    "lon": "-48.233334",
    "iso": "BR",
    "status": 1,
    "name": "Minaçu Airport",
    "continent": "SA",
    "type": "airport",
    "lat": "-13.533333",
    "size": "medium"
  },
  {
    "iata": "MEU",
    "lon": "-52.583332",
    "iso": "BR",
    "status": 1,
    "name": "Monte Dourado Airport",
    "continent": "SA",
    "type": "airport",
    "lat": "-0.883333",
    "size": "medium"
  },
  {
    "iata": "MEA",
    "lon": "-41.76405",
    "iso": "BR",
    "status": 1,
    "name": "Benedito Lacerda Airport",
    "continent": "SA",
    "type": "airport",
    "lat": "-22.341843",
    "size": "medium"
  },
  {
    "iata": "MGF",
    "lon": "-51.933334",
    "iso": "BR",
    "status": 1,
    "name": "Maringá Airport",
    "continent": "SA",
    "type": "airport",
    "lat": "-23.383612",
    "size": "medium"
  },
  {
    "iata": "MOC",
    "lon": "-43.817223",
    "iso": "BR",
    "status": 1,
    "name": "Montes Claros Airport",
    "continent": "SA",
    "type": "airport",
    "lat": "-16.707779",
    "size": "medium"
  },
  {
    "iata": "MII",
    "lon": "-49.933334",
    "iso": "BR",
    "status": 1,
    "name": "Marília Airport",
    "continent": "SA",
    "type": "airport",
    "lat": "-22.2",
    "size": "medium"
  },
  {
    "iata": "PLL",
    "lon": "-59.984444",
    "iso": "BR",
    "status": 1,
    "name": "Ponta Pelada Airport",
    "continent": "SA",
    "type": "airport",
    "lat": "-3.145556",
    "size": "medium"
  },
  {
    "iata": "MCZ",
    "lon": "-35.800446",
    "iso": "BR",
    "status": 1,
    "name": "Zumbi dos Palmares Airport",
    "continent": "SA",
    "type": "airport",
    "lat": "-9.512521",
    "size": "medium"
  },
  {
    "iata": "MCP",
    "lon": "-51.068382",
    "iso": "BR",
    "status": 1,
    "name": "Alberto Alcolumbre Airport",
    "continent": "SA",
    "type": "airport",
    "lat": "0.049895",
    "size": "medium"
  },
  {
    "iata": "MVF",
    "lon": "-37.25",
    "iso": "BR",
    "status": 1,
    "name": "Dix-Sept Rosado Airport",
    "continent": "SA",
    "type": "airport",
    "lat": "-5.166667",
    "size": "medium"
  },
  {
    "iata": "SAO",
    "iso": "BR",
    "status": 1,
    "name": "Campo de Marte Airport",
    "continent": "SA",
    "type": "airport",
    "size": "medium"
  },
  {
    "iata": "MNX",
    "lon": "-61.283333",
    "iso": "BR",
    "status": 1,
    "name": "Manicoré Airport",
    "continent": "SA",
    "type": "airport",
    "lat": "-5.816667",
    "size": "medium"
  },
  {
    "iata": "NVT",
    "lon": "-48.63333",
    "iso": "BR",
    "status": 1,
    "name": "Ministro Victor Konder International Airport",
    "continent": "SA",
    "type": "airport",
    "lat": "-26.866667",
    "size": "medium"
  },
  {
    "iata": "NAT",
    "lon": "-35.250244",
    "iso": "BR",
    "status": 1,
    "name": "Augusto Severo Airport",
    "continent": "SA",
    "type": "airport",
    "lat": "-5.916787",
    "size": "medium"
  },
  {
    "iata": "OYK",
    "lon": "-51.783333",
    "iso": "BR",
    "status": 1,
    "name": "Oiapoque Airport",
    "continent": "SA",
    "type": "airport",
    "lat": "3.883333",
    "size": "medium"
  },
  {
    "iata": "POA",
    "lon": "-51.17709",
    "iso": "BR",
    "status": 1,
    "name": "Salgado Filho Airport",
    "continent": "SA",
    "type": "airport",
    "lat": "-29.98961",
    "size": "medium"
  },
  {
    "iata": "PBB",
    "lon": "-51.183334",
    "iso": "BR",
    "status": 1,
    "name": "Paranaíba Airport",
    "continent": "SA",
    "type": "airport",
    "lat": "-19.666668",
    "size": "small"
  },
  {
    "iata": "POO",
    "lon": "-46.5675",
    "iso": "BR",
    "status": 1,
    "name": "Poços de Caldas Airport",
    "continent": "SA",
    "type": "airport",
    "lat": "-21.841389",
    "size": "medium"
  },
  {
    "iata": "PFB",
    "lon": "-52.333332",
    "iso": "BR",
    "status": 1,
    "name": "Lauro Kurtz Airport",
    "continent": "SA",
    "type": "airport",
    "lat": "-28.25",
    "size": "medium"
  },
  {
    "iata": "PMW",
    "lon": "-48.35278",
    "iso": "BR",
    "status": 1,
    "name": "Brigadeiro Lysias Rodrigues Airport",
    "continent": "SA",
    "type": "airport",
    "lat": "-10.241667",
    "size": "medium"
  },
  {
    "iata": "PET",
    "lon": "-52.324444",
    "iso": "BR",
    "status": 1,
    "name": "Pelotas Airport",
    "continent": "SA",
    "type": "airport",
    "lat": "-31.718056",
    "size": "medium"
  },
  {
    "iata": "PNZ",
    "lon": "-40.490555",
    "iso": "BR",
    "status": 1,
    "name": "Senador Nilo Coelho Airport",
    "continent": "SA",
    "type": "airport",
    "lat": "-9.393333",
    "size": "medium"
  },
  {
    "iata": "PNB",
    "lon": "-48.416668",
    "iso": "BR",
    "status": 1,
    "name": "Porto Nacional Airport",
    "continent": "SA",
    "type": "airport",
    "lat": "-10.7",
    "size": "medium"
  },
  {
    "iata": "PMG",
    "lon": "-55.7",
    "iso": "BR",
    "status": 1,
    "name": "Ponta Porã Airport",
    "continent": "SA",
    "type": "airport",
    "lat": "-22.55",
    "size": "medium"
  },
  {
    "iata": "BPS",
    "lon": "-39.081097",
    "iso": "BR",
    "status": 1,
    "name": "Porto Seguro Airport",
    "continent": "SA",
    "type": "airport",
    "lat": "-16.441158",
    "size": "medium"
  },
  {
    "iata": "PVH",
    "lon": "-63.898308",
    "iso": "BR",
    "status": 1,
    "name": "Governador Jorge Teixeira de Oliveira Airport",
    "continent": "SA",
    "type": "airport",
    "lat": "-8.714311",
    "size": "medium"
  },
  {
    "iata": "VDC",
    "lon": "-40.86667",
    "iso": "BR",
    "status": 1,
    "name": "Vitória da Conquista Airport",
    "continent": "SA",
    "type": "airport",
    "lat": "-14.883333",
    "size": "medium"
  },
  {
    "iata": "RBR",
    "lon": "-67.8",
    "iso": "BR",
    "status": 1,
    "name": "Plácido de Castro International Airport",
    "continent": "SA",
    "type": "airport",
    "lat": "-9.966667",
    "size": "medium"
  },
  {
    "iata": "REC",
    "lon": "-34.91792",
    "iso": "BR",
    "status": 1,
    "name": "Guararapes - Gilberto Freyre International Airport",
    "continent": "SA",
    "type": "airport",
    "lat": "-8.131507",
    "size": "medium"
  },
  {
    "iata": "SDU",
    "lon": "-43.167095",
    "iso": "BR",
    "status": 1,
    "name": "Santos Dumont Airport",
    "continent": "SA",
    "type": "airport",
    "lat": "-22.911541",
    "size": "medium"
  },
  {
    "iata": "RAO",
    "lon": "-47.773335",
    "iso": "BR",
    "status": 1,
    "name": "Leite Lopes Airport",
    "continent": "SA",
    "type": "airport",
    "lat": "-21.135834",
    "size": "medium"
  },
  {
    "iata": "BRB",
    "lon": "-57.11111",
    "iso": "BR",
    "status": 1,
    "name": "Barreirinhas Airport",
    "continent": "SA",
    "type": "airport",
    "lat": "-2.910626",
    "size": "small"
  },
  {
    "iata": "SNZ",
    "lon": "-36.016666",
    "iso": "BR",
    "status": 1,
    "name": "Santa Cruz Airport",
    "continent": "SA",
    "type": "airport",
    "lat": "-6.216667",
    "size": "medium"
  },
  {
    "iata": "SJK",
    "lon": "-46.11667",
    "iso": "BR",
    "status": 1,
    "name": "Professor Urbano Ernesto Stumpf Airport",
    "continent": "SA",
    "type": "airport",
    "lat": "-23.183332",
    "size": "medium"
  },
  {
    "iata": "SLZ",
    "lon": "-44.236683",
    "iso": "BR",
    "status": 1,
    "name": "Marechal Cunha Machado International Airport",
    "continent": "SA",
    "type": "airport",
    "lat": "-2.583316",
    "size": "medium"
  },
  {
    "iata": "RIA",
    "lon": "-53.6875",
    "iso": "BR",
    "status": 1,
    "name": "Santa Maria Airport",
    "continent": "SA",
    "type": "airport",
    "lat": "-29.710556",
    "size": "medium"
  },
  {
    "iata": "STM",
    "lon": "-54.78639",
    "iso": "BR",
    "status": 1,
    "name": "Maestro Wilson Fonseca Airport",
    "continent": "SA",
    "type": "airport",
    "lat": "-2.424886",
    "size": "medium"
  },
  {
    "iata": "CGH",
    "lon": "-46.659557",
    "iso": "BR",
    "status": 1,
    "name": "Congonhas Airport",
    "continent": "SA",
    "type": "airport",
    "lat": "-23.626902",
    "size": "large"
  },
  {
    "iata": "SJP",
    "lon": "-49.416668",
    "iso": "BR",
    "status": 1,
    "name": "São José do Rio Preto",
    "continent": "SA",
    "type": "airport",
    "lat": "-20.816668",
    "size": "medium"
  },
  {
    "iata": "SSA",
    "lon": "-38.335197",
    "iso": "BR",
    "status": 1,
    "name": "Deputado Luís Eduardo Magalhães International Airport",
    "continent": "SA",
    "type": "airport",
    "lat": "-12.913988",
    "size": "large"
  },
  {
    "iata": "TMT",
    "lon": "-55.583332",
    "iso": "BR",
    "status": 1,
    "name": "Trombetas Airport",
    "continent": "SA",
    "type": "airport",
    "lat": "-1.916667",
    "size": "medium"
  },
  {
    "iata": "TOW",
    "lon": "-53.69611",
    "iso": "BR",
    "status": 1,
    "name": "Toledo Airport",
    "continent": "SA",
    "type": "airport",
    "lat": "-24.69861",
    "size": "small"
  },
  {
    "iata": "THE",
    "lon": "-42.821087",
    "iso": "BR",
    "status": 1,
    "name": "Teresina Airport",
    "continent": "SA",
    "type": "airport",
    "lat": "-5.06335",
    "size": "medium"
  },
  {
    "iata": "TFF",
    "lon": "-64.7",
    "iso": "BR",
    "status": 1,
    "name": "Tefé Airport",
    "continent": "SA",
    "type": "airport",
    "lat": "-3.366667",
    "size": "medium"
  },
  {
    "iata": "SJL",
    "lon": "-66.98556",
    "iso": "BR",
    "status": 1,
    "name": "São Gabriel da Cachoeira Airport",
    "continent": "SA",
    "type": "airport",
    "lat": "-0.148333",
    "size": "medium"
  },
  {
    "iata": "PAV",
    "lon": "-38.249916",
    "iso": "BR",
    "status": 1,
    "name": "Paulo Afonso Airport",
    "continent": "SA",
    "type": "airport",
    "lat": "-9.40077",
    "size": "medium"
  },
  {
    "iata": "URG",
    "lon": "-57.038334",
    "iso": "BR",
    "status": 1,
    "name": "Rubem Berta Airport",
    "continent": "SA",
    "type": "airport",
    "lat": "-29.781668",
    "size": "medium"
  },
  {
    "iata": "UDI",
    "lon": "-48.225822",
    "iso": "BR",
    "status": 1,
    "name": "Uberlândia Airport",
    "continent": "SA",
    "type": "airport",
    "lat": "-18.884567",
    "size": "medium"
  },
  {
    "iata": "UBA",
    "lon": "-47.958332",
    "iso": "BR",
    "status": 1,
    "name": "Uberaba Airport",
    "continent": "SA",
    "type": "airport",
    "lat": "-19.776388",
    "size": "medium"
  },
  {
    "iata": "VAG",
    "lon": "-45.47395",
    "iso": "BR",
    "status": 1,
    "name": "Major Brigadeiro Trompowsky Airport",
    "continent": "SA",
    "type": "airport",
    "lat": "-21.588886",
    "size": "medium"
  },
  {
    "iata": "BVH",
    "lon": "-60.11667",
    "iso": "BR",
    "status": 1,
    "name": "Vilhena Airport",
    "continent": "SA",
    "type": "airport",
    "lat": "-12.716667",
    "size": "medium"
  },
  {
    "iata": "VIX",
    "lon": "-40.289566",
    "iso": "BR",
    "status": 1,
    "name": "Eurico de Aguiar Salles Airport",
    "continent": "SA",
    "type": "airport",
    "lat": "-20.25681",
    "size": "medium"
  },
  {
    "iata": "QPS",
    "iso": "BR",
    "status": 1,
    "name": "Campo Fontenelle Airport",
    "continent": "SA",
    "type": "airport",
    "size": "medium"
  },
  {
    "iata": "CPQ",
    "lon": "-47.111595",
    "iso": "BR",
    "status": 1,
    "name": "Amarais Airport",
    "continent": "SA",
    "type": "airport",
    "lat": "-22.856462",
    "size": "small"
  },
  {
    "iata": "QCJ",
    "lon": "-48.475",
    "iso": "BR",
    "status": 1,
    "name": "Botucatu Airport",
    "continent": "SA",
    "type": "airport",
    "lat": "-22.966667",
    "size": "small"
  },
  {
    "iata": "OLC",
    "lon": "-68.95853",
    "iso": "BR",
    "status": 1,
    "name": "Senadora Eunice Micheles Airport",
    "continent": "SA",
    "type": "airport",
    "lat": "-3.470869",
    "size": "small"
  },
  {
    "iata": "SOD",
    "lon": "-47.45",
    "iso": "BR",
    "status": 1,
    "name": "Sorocaba Airport",
    "continent": "SA",
    "type": "airport",
    "lat": "-23.483334",
    "size": "small"
  },
  {
    "iata": "QDC",
    "lon": "-51.666668",
    "iso": "BR",
    "status": 1,
    "name": "Dracena Airport",
    "continent": "SA",
    "type": "airport",
    "lat": "-21.561111",
    "size": "small"
  },
  {
    "iata": "JLS",
    "lon": "-50.55",
    "iso": "BR",
    "status": 1,
    "name": "Jales Airport",
    "continent": "SA",
    "type": "airport",
    "lat": "-20.166668",
    "size": "small"
  },
  {
    "iata": "QOA",
    "lon": "-47.044445",
    "iso": "BR",
    "status": 1,
    "name": "Mococa Airport",
    "continent": "SA",
    "type": "airport",
    "lat": "-21.527779",
    "size": "small"
  },
  {
    "iata": "QGC",
    "lon": "-48.85278",
    "iso": "BR",
    "status": 1,
    "name": "Lençóis Paulistas Airport",
    "continent": "SA",
    "type": "airport",
    "lat": "-22.672222",
    "size": "small"
  },
  {
    "iata": "QNV",
    "lon": "-43.59722",
    "iso": "BR",
    "status": 1,
    "name": "Aeroclube Airport",
    "continent": "SA",
    "type": "airport",
    "lat": "-22.866667",
    "size": "small"
  },
  {
    "iata": "OUS",
    "lon": "-49.916668",
    "iso": "BR",
    "status": 1,
    "name": "Ourinhos Airport",
    "continent": "SA",
    "type": "airport",
    "lat": "-22.966667",
    "size": "small"
  },
  {
    "iata": "QHB",
    "lon": "-47.644444",
    "iso": "BR",
    "status": 1,
    "name": "Piracicaba Airport",
    "continent": "SA",
    "type": "airport",
    "lat": "-22.805555",
    "size": "small"
  },
  {
    "iata": "QIQ",
    "lon": "-47.691666",
    "iso": "BR",
    "status": 1,
    "name": "Rio Claro Airport",
    "continent": "SA",
    "type": "airport",
    "lat": "-22.561111",
    "size": "small"
  },
  {
    "iata": "QVP",
    "lon": "-48.99167",
    "iso": "BR",
    "status": 1,
    "name": "Avaré-Arandu Airport",
    "continent": "SA",
    "type": "airport",
    "lat": "-23.180555",
    "size": "small"
  },
  {
    "iata": "QRZ",
    "lon": "-44.61667",
    "iso": "BR",
    "status": 1,
    "name": "Resende Airport",
    "continent": "SA",
    "type": "airport",
    "lat": "-22.586111",
    "size": "small"
  },
  {
    "iata": "QSC",
    "iso": "BR",
    "status": 1,
    "name": "São Carlos Airport",
    "continent": "SA",
    "type": "airport",
    "size": "small"
  },
  {
    "iata": "UBT",
    "lon": "-45.083332",
    "iso": "BR",
    "status": 1,
    "name": "Ubatuba Airport",
    "continent": "SA",
    "type": "airport",
    "lat": "-23.433332",
    "size": "small"
  },
  {
    "iata": "QGS",
    "iso": "BR",
    "status": 1,
    "name": "Alagoinhas Airport",
    "continent": "SA",
    "type": "airport",
    "size": "small"
  },
  {
    "iata": "VOT",
    "lon": "-49.88333",
    "iso": "BR",
    "status": 1,
    "name": "Votuporanga Airport",
    "continent": "SA",
    "type": "airport",
    "lat": "-20.433332",
    "size": "small"
  },
  {
    "iata": "QGB",
    "iso": "BR",
    "status": 1,
    "name": "Limeira Airport",
    "continent": "SA",
    "type": "airport",
    "size": "small"
  },
  {
    "iata": "IZA",
    "lon": "-43.173058",
    "iso": "BR",
    "status": 1,
    "name": "Zona da Mata Regional Airport",
    "continent": "SA",
    "type": "airport",
    "lat": "-21.513056",
    "size": "medium"
  },
  {
    "iata": "OCC",
    "lon": "-76.98596",
    "iso": "EC",
    "status": 1,
    "name": "Francisco De Orellana Airport",
    "continent": "SA",
    "type": "airport",
    "lat": "-0.462171",
    "size": "medium"
  },
  {
    "iata": "CUE",
    "lon": "-78.98689",
    "iso": "EC",
    "status": 1,
    "name": "Mariscal Lamar Airport",
    "continent": "SA",
    "type": "airport",
    "lat": "-2.889343",
    "size": "medium"
  },
  {
    "iata": "GPS",
    "lon": "-90.282776",
    "iso": "EC",
    "status": 1,
    "name": "Seymour Airport",
    "continent": "SA",
    "type": "airport",
    "lat": "-0.434722",
    "size": "small"
  },
  {
    "iata": "GYE",
    "lon": "-79.88032",
    "iso": "EC",
    "status": 1,
    "name": "Simon Bolivar International Airport",
    "continent": "SA",
    "type": "airport",
    "lat": "-2.142654",
    "size": "medium"
  },
  {
    "iata": "IBB",
    "iso": "EC",
    "status": 1,
    "name": "General Villamil Airport",
    "continent": "SA",
    "type": "airport",
    "size": "small"
  },
  {
    "iata": "JIP",
    "lon": "-80.666664",
    "iso": "EC",
    "status": 1,
    "name": "Jipijapa Airport",
    "continent": "SA",
    "type": "airport",
    "lat": "-1.0",
    "size": "small"
  },
  {
    "iata": "LTX",
    "lon": "-78.61609",
    "iso": "EC",
    "status": 1,
    "name": "Cotopaxi International Airport",
    "continent": "SA",
    "type": "airport",
    "lat": "-0.918468",
    "size": "medium"
  },
  {
    "iata": "MRR",
    "lon": "-79.933334",
    "iso": "EC",
    "status": 1,
    "name": "Jose Maria Velasco Ibarra Airport",
    "continent": "SA",
    "type": "airport",
    "lat": "-4.383333",
    "size": "medium"
  },
  {
    "iata": "XMS",
    "lon": "-78.13333",
    "iso": "EC",
    "status": 1,
    "name": "Coronel E Carvajal Airport",
    "continent": "SA",
    "type": "airport",
    "lat": "-2.316667",
    "size": "medium"
  },
  {
    "iata": "MCH",
    "lon": "-79.98333",
    "iso": "EC",
    "status": 1,
    "name": "General Manuel Serrano Airport",
    "continent": "SA",
    "type": "airport",
    "lat": "-3.266667",
    "size": "medium"
  },
  {
    "iata": "MEC",
    "lon": "-80.684",
    "iso": "EC",
    "status": 1,
    "name": "Eloy Alfaro International Airport",
    "continent": "SA",
    "type": "airport",
    "lat": "-0.953035",
    "size": "medium"
  },
  {
    "iata": "LGQ",
    "lon": "-76.88333",
    "iso": "EC",
    "status": 1,
    "name": "Nueva Loja Airport",
    "continent": "SA",
    "type": "airport",
    "lat": "0.1",
    "size": "small"
  },
  {
    "iata": "PYO",
    "lon": "-75.9",
    "iso": "EC",
    "status": 1,
    "name": "Putumayo Airport",
    "continent": "SA",
    "type": "airport",
    "lat": "0.083333",
    "size": "small"
  },
  {
    "iata": "PVO",
    "lon": "-80.46667",
    "iso": "EC",
    "status": 1,
    "name": "Reales Tamarindos Airport",
    "continent": "SA",
    "type": "airport",
    "lat": "-1.033333",
    "size": "medium"
  },
  {
    "iata": "UIO",
    "lon": "-78.35597",
    "iso": "EC",
    "status": 1,
    "name": "Mariscal Sucre International Airport",
    "continent": "SA",
    "type": "airport",
    "lat": "-0.123811",
    "size": "medium"
  },
  {
    "iata": "ETR",
    "lon": "-79.96167",
    "iso": "EC",
    "status": 1,
    "name": "Coronel Artilleria Victor Larrea Airport",
    "continent": "SA",
    "type": "airport",
    "lat": "-3.452222",
    "size": "small"
  },
  {
    "iata": "SNC",
    "lon": "-80.98333",
    "iso": "EC",
    "status": 1,
    "name": "General Ulpiano Paez Airport",
    "continent": "SA",
    "type": "airport",
    "lat": "-2.2",
    "size": "medium"
  },
  {
    "iata": "SUQ",
    "lon": "-78.166664",
    "iso": "EC",
    "status": 1,
    "name": "Sucua Airport",
    "continent": "SA",
    "type": "airport",
    "lat": "-2.466667",
    "size": "small"
  },
  {
    "iata": "PTZ",
    "lon": "-77.0",
    "iso": "EC",
    "status": 1,
    "name": "Rio Amazonas Airport",
    "continent": "SA",
    "type": "airport",
    "lat": "-2.0",
    "size": "small"
  },
  {
    "iata": "BHA",
    "lon": "-80.416664",
    "iso": "EC",
    "status": 1,
    "name": "Los Perales Airport",
    "continent": "SA",
    "type": "airport",
    "lat": "-0.6",
    "size": "small"
  },
  {
    "iata": "TSC",
    "lon": "-77.5",
    "iso": "EC",
    "status": 1,
    "name": "Taisha Airport",
    "continent": "SA",
    "type": "airport",
    "lat": "-2.383333",
    "size": "small"
  },
  {
    "iata": "TPN",
    "lon": "-75.53333",
    "iso": "EC",
    "status": 1,
    "name": "Tiputini Airport",
    "continent": "SA",
    "type": "airport",
    "lat": "-0.766667",
    "size": "small"
  },
  {
    "iata": "LOH",
    "lon": "-79.37361",
    "iso": "EC",
    "status": 1,
    "name": "Camilo Ponce Enriquez Airport",
    "continent": "SA",
    "type": "airport",
    "lat": "-3.993611",
    "size": "small"
  },
  {
    "iata": "ESM",
    "lon": "-79.625",
    "iso": "EC",
    "status": 1,
    "name": "General Rivadeneira Airport",
    "continent": "SA",
    "type": "airport",
    "lat": "0.966667",
    "size": "small"
  },
  {
    "iata": "TPC",
    "lon": "-76.78333",
    "iso": "EC",
    "status": 1,
    "name": "Tarapoa Airport",
    "continent": "SA",
    "type": "airport",
    "lat": "-1.416667",
    "size": "medium"
  },
  {
    "iata": "TUA",
    "lon": "-77.71667",
    "iso": "EC",
    "status": 1,
    "name": "Teniente Coronel Luis a Mantilla Airport",
    "continent": "SA",
    "type": "airport",
    "lat": "0.8",
    "size": "medium"
  },
  {
    "iata": "PSY",
    "lon": "-57.85",
    "iso": "FK",
    "status": 1,
    "name": "Stanley Airport",
    "continent": "SA",
    "type": "airport",
    "lat": "-51.7",
    "size": "medium"
  },
  {
    "iata": "ASU",
    "lon": "-57.513794",
    "iso": "PY",
    "status": 1,
    "name": "Silvio Pettirossi International Airport",
    "continent": "SA",
    "type": "airport",
    "lat": "-25.241795",
    "size": "medium"
  },
  {
    "iata": "AYO",
    "lon": "-56.85",
    "iso": "PY",
    "status": 1,
    "name": "Juan De Ayolas Airport",
    "continent": "SA",
    "type": "airport",
    "lat": "-27.366667",
    "size": "medium"
  },
  {
    "iata": "CIO",
    "lon": "-57.41833",
    "iso": "PY",
    "status": 1,
    "name": "Teniente Col Carmelo Peralta Airport",
    "continent": "SA",
    "type": "airport",
    "lat": "-23.434444",
    "size": "small"
  },
  {
    "iata": "AGT",
    "lon": "-54.833332",
    "iso": "PY",
    "status": 1,
    "name": "Guarani International Airport",
    "continent": "SA",
    "type": "airport",
    "lat": "-25.5",
    "size": "medium"
  },
  {
    "iata": "FLM",
    "lon": "-60.033333",
    "iso": "PY",
    "status": 1,
    "name": "Filadelfia Airport",
    "continent": "SA",
    "type": "airport",
    "lat": "-22.35",
    "size": "small"
  },
  {
    "iata": "PIL",
    "lon": "-58.333332",
    "iso": "PY",
    "status": 1,
    "name": "Carlos Miguel Gimenez Airport",
    "continent": "SA",
    "type": "airport",
    "lat": "-26.866667",
    "size": "medium"
  },
  {
    "iata": "PJC",
    "lon": "-55.666668",
    "iso": "PY",
    "status": 1,
    "name": "Dr Augusto Roberto Fuster International Airport",
    "continent": "SA",
    "type": "airport",
    "lat": "-22.5",
    "size": "small"
  },
  {
    "iata": "LVR",
    "iso": "BR",
    "status": 1,
    "name": "Municipal Bom Futuro Airport",
    "continent": "SA",
    "type": "airport",
    "size": "small"
  },
  {
    "iata": "FRC",
    "lon": "-47.4375",
    "iso": "BR",
    "status": 1,
    "name": "Franca Airport",
    "continent": "SA",
    "type": "airport",
    "lat": "-20.551945",
    "size": "small"
  },
  {
    "iata": "CFO",
    "lon": "-51.566666",
    "iso": "BR",
    "status": 1,
    "name": "Confresa Airport",
    "continent": "SA",
    "type": "airport",
    "lat": "-10.633333",
    "size": "small"
  },
  {
    "iata": "JTC",
    "lon": "-49.07229",
    "iso": "BR",
    "status": 1,
    "name": "Bauru - Arealva Airport",
    "continent": "SA",
    "type": "airport",
    "lat": "-22.165958",
    "size": "medium"
  },
  {
    "iata": "ARS",
    "lon": "-52.233334",
    "iso": "BR",
    "status": 1,
    "name": "Usina Santa Cruz Airport",
    "continent": "SA",
    "type": "airport",
    "lat": "-15.9",
    "size": "small"
  },
  {
    "iata": "ACM",
    "lon": "-71.833336",
    "iso": "CO",
    "status": 1,
    "name": "Arica Airport",
    "continent": "SA",
    "type": "airport",
    "lat": "-2.0",
    "size": "small"
  },
  {
    "iata": "ACL",
    "lon": "-73.0",
    "iso": "CO",
    "status": 1,
    "name": "Aguaclara Airport",
    "continent": "SA",
    "type": "airport",
    "lat": "4.75",
    "size": "small"
  },
  {
    "iata": "NBB",
    "lon": "-70.333336",
    "iso": "CO",
    "status": 1,
    "name": "Barranco Minas Airport",
    "continent": "SA",
    "type": "airport",
    "lat": "3.333333",
    "size": "small"
  },
  {
    "iata": "AZT",
    "lon": "-73.25",
    "iso": "CO",
    "status": 1,
    "name": "Zapatoca Airport",
    "continent": "SA",
    "type": "airport",
    "lat": "6.866667",
    "size": "small"
  },
  {
    "iata": "SQB",
    "lon": "-74.583336",
    "iso": "CO",
    "status": 1,
    "name": "Santa Ana Airport",
    "continent": "SA",
    "type": "airport",
    "lat": "9.316667",
    "size": "small"
  },
  {
    "iata": "ARF",
    "lon": "-70.13333",
    "iso": "CO",
    "status": 1,
    "name": "Acaricuara Airport",
    "continent": "SA",
    "type": "airport",
    "lat": "0.533333",
    "size": "small"
  },
  {
    "iata": "ACR",
    "lon": "-72.3",
    "iso": "CO",
    "status": 1,
    "name": "Araracuara Airport",
    "continent": "SA",
    "type": "airport",
    "lat": "-0.383333",
    "size": "small"
  },
  {
    "iata": "AFI",
    "lon": "-75.066666",
    "iso": "CO",
    "status": 1,
    "name": "Amalfi Airport",
    "continent": "SA",
    "type": "airport",
    "lat": "6.916667",
    "size": "small"
  },
  {
    "iata": "ADN",
    "lon": "-75.933334",
    "iso": "CO",
    "status": 1,
    "name": "Andes Airport",
    "continent": "SA",
    "type": "airport",
    "lat": "5.666667",
    "size": "small"
  },
  {
    "iata": "APY",
    "lon": "-45.933334",
    "iso": "CO",
    "status": 1,
    "name": "Gomez Nino Apiay Air Base",
    "continent": "SA",
    "type": "airport",
    "lat": "-9.133333",
    "size": "medium"
  },
  {
    "iata": "AXM",
    "lon": "-75.76804",
    "iso": "CO",
    "status": 1,
    "name": "El Eden Airport",
    "continent": "SA",
    "type": "airport",
    "lat": "4.452869",
    "size": "medium"
  },
  {
    "iata": "PUU",
    "lon": "-76.53333",
    "iso": "CO",
    "status": 1,
    "name": "Tres De Mayo Airport",
    "continent": "SA",
    "type": "airport",
    "lat": "0.533333",
    "size": "medium"
  },
  {
    "iata": "ELB",
    "lon": "-73.97417",
    "iso": "CO",
    "status": 1,
    "name": "Las Flores Airport",
    "continent": "SA",
    "type": "airport",
    "lat": "9.048889",
    "size": "medium"
  },
  {
    "iata": "BGA",
    "lon": "-73.1814",
    "iso": "CO",
    "status": 1,
    "name": "Palonegro Airport",
    "continent": "SA",
    "type": "airport",
    "lat": "7.128045",
    "size": "medium"
  },
  {
    "iata": "BOG",
    "lon": "-74.143135",
    "iso": "CO",
    "status": 1,
    "name": "El Dorado International Airport",
    "continent": "SA",
    "type": "airport",
    "lat": "4.698602",
    "size": "large"
  },
  {
    "iata": "BAQ",
    "lon": "-74.77618",
    "iso": "CO",
    "status": 1,
    "name": "Ernesto Cortissoz International Airport",
    "continent": "SA",
    "type": "airport",
    "lat": "10.886398",
    "size": "medium"
  },
  {
    "iata": "CUC",
    "lon": "-72.50815",
    "iso": "CO",
    "status": 1,
    "name": "Camilo Daza International Airport",
    "continent": "SA",
    "type": "airport",
    "lat": "7.927108",
    "size": "medium"
  },
  {
    "iata": "COG",
    "lon": "-76.66333",
    "iso": "CO",
    "status": 1,
    "name": "Mandinga Airport",
    "continent": "SA",
    "type": "airport",
    "lat": "5.079167",
    "size": "small"
  },
  {
    "iata": "CCO",
    "lon": "-71.333336",
    "iso": "CO",
    "status": 1,
    "name": "Carimagua Airport",
    "continent": "SA",
    "type": "airport",
    "lat": "4.566667",
    "size": "small"
  },
  {
    "iata": "CLO",
    "lon": "-76.381386",
    "iso": "CO",
    "status": 1,
    "name": "Alfonso Bonilla Aragon International Airport",
    "continent": "SA",
    "type": "airport",
    "lat": "3.543056",
    "size": "medium"
  },
  {
    "iata": "CIM",
    "lon": "-74.11667",
    "iso": "CO",
    "status": 1,
    "name": "Cimitarra Airport",
    "continent": "SA",
    "type": "airport",
    "lat": "6.483333",
    "size": "small"
  },
  {
    "iata": "RAV",
    "lon": "-70.183334",
    "iso": "CO",
    "status": 1,
    "name": "Cravo Norte Airport",
    "continent": "SA",
    "type": "airport",
    "lat": "6.316667",
    "size": "small"
  },
  {
    "iata": "TCO",
    "lon": "-78.76667",
    "iso": "CO",
    "status": 1,
    "name": "La Florida Airport",
    "continent": "SA",
    "type": "airport",
    "lat": "1.816667",
    "size": "medium"
  },
  {
    "iata": "CAQ",
    "lon": "-75.19718",
    "iso": "CO",
    "status": 1,
    "name": "Juan H White Airport",
    "continent": "SA",
    "type": "airport",
    "lat": "7.967905",
    "size": "medium"
  },
  {
    "iata": "CZU",
    "lon": "-75.282776",
    "iso": "CO",
    "status": 1,
    "name": "Las Brujas Airport",
    "continent": "SA",
    "type": "airport",
    "lat": "9.3375",
    "size": "medium"
  },
  {
    "iata": "EBG",
    "lon": "-74.816666",
    "iso": "CO",
    "status": 1,
    "name": "El Bagre Airport",
    "continent": "SA",
    "type": "airport",
    "lat": "7.616667",
    "size": "medium"
  },
  {
    "iata": "FLA",
    "lon": "-75.55889",
    "iso": "CO",
    "status": 1,
    "name": "Gustavo Artunduaga Paredes Airport",
    "continent": "SA",
    "type": "airport",
    "lat": "1.588889",
    "size": "medium"
  },
  {
    "iata": "GIR",
    "lon": "-74.8",
    "iso": "CO",
    "status": 1,
    "name": "Santiago Vila Airport",
    "continent": "SA",
    "type": "airport",
    "lat": "4.3",
    "size": "medium"
  },
  {
    "iata": "CRC",
    "lon": "-75.933334",
    "iso": "CO",
    "status": 1,
    "name": "Santa Ana Airport",
    "continent": "SA",
    "type": "airport",
    "lat": "4.766667",
    "size": "medium"
  },
  {
    "iata": "GPI",
    "lon": "-78.34167",
    "iso": "CO",
    "status": 1,
    "name": "Juan Casiano Airport",
    "continent": "SA",
    "type": "airport",
    "lat": "2.5",
    "size": "medium"
  },
  {
    "iata": "CPL",
    "lon": "-75.46667",
    "iso": "CO",
    "status": 1,
    "name": "Chaparral Airport",
    "continent": "SA",
    "type": "airport",
    "lat": "3.716667",
    "size": "small"
  },
  {
    "iata": "HTZ",
    "lon": "-72.63333",
    "iso": "CO",
    "status": 1,
    "name": "Hato Corozal Airport",
    "continent": "SA",
    "type": "airport",
    "lat": "6.033333",
    "size": "small"
  },
  {
    "iata": "IBE",
    "lon": "-75.13858",
    "iso": "CO",
    "status": 1,
    "name": "Perales Airport",
    "continent": "SA",
    "type": "airport",
    "lat": "4.423948",
    "size": "medium"
  },
  {
    "iata": "MMP",
    "lon": "-74.43611",
    "iso": "CO",
    "status": 1,
    "name": "Cicuco Airport",
    "continent": "SA",
    "type": "airport",
    "lat": "9.261667",
    "size": "small"
  },
  {
    "iata": "IPI",
    "lon": "-77.71167",
    "iso": "CO",
    "status": 1,
    "name": "San Luis Airport",
    "continent": "SA",
    "type": "airport",
    "lat": "0.866389",
    "size": "medium"
  },
  {
    "iata": "LQM",
    "lon": "-74.583336",
    "iso": "CO",
    "status": 1,
    "name": "Caucaya Airport",
    "continent": "SA",
    "type": "airport",
    "lat": "-0.3",
    "size": "small"
  },
  {
    "iata": "MCJ",
    "lon": "-72.24167",
    "iso": "CO",
    "status": 1,
    "name": "Jorge Isaac Airport",
    "continent": "SA",
    "type": "airport",
    "lat": "11.391667",
    "size": "medium"
  },
  {
    "iata": "LPD",
    "lon": "-69.71667",
    "iso": "CO",
    "status": 1,
    "name": "La Pedrera Airport",
    "continent": "SA",
    "type": "airport",
    "lat": "-1.3",
    "size": "small"
  },
  {
    "iata": "EOH",
    "lon": "-75.5864",
    "iso": "CO",
    "status": 1,
    "name": "Enrique Olaya Herrera Airport",
    "continent": "SA",
    "type": "airport",
    "lat": "6.218666",
    "size": "medium"
  },
  {
    "iata": "MFS",
    "lon": "-73.25",
    "iso": "CO",
    "status": 1,
    "name": "Miraflores Airport",
    "continent": "SA",
    "type": "airport",
    "lat": "5.166667",
    "size": "small"
  },
  {
    "iata": "MGN",
    "lon": "-74.845",
    "iso": "CO",
    "status": 1,
    "name": "Baracoa Airport",
    "continent": "SA",
    "type": "airport",
    "lat": "9.288056",
    "size": "medium"
  },
  {
    "iata": "MCJ",
    "lon": "-72.24167",
    "iso": "CO",
    "status": 1,
    "name": "Maicao Airport",
    "continent": "SA",
    "type": "airport",
    "lat": "11.391667",
    "size": "small"
  },
  {
    "iata": "MTB",
    "lon": "-75.46667",
    "iso": "CO",
    "status": 1,
    "name": "Montelibano Airport",
    "continent": "SA",
    "type": "airport",
    "lat": "8.066667",
    "size": "small"
  },
  {
    "iata": "MTR",
    "lon": "-75.82392",
    "iso": "CO",
    "status": 1,
    "name": "Los Garzones Airport",
    "continent": "SA",
    "type": "airport",
    "lat": "8.825035",
    "size": "medium"
  },
  {
    "iata": "MVP",
    "lon": "-70.05",
    "iso": "CO",
    "status": 1,
    "name": "Fabio Alberto Leon Bentley Airport",
    "continent": "SA",
    "type": "airport",
    "lat": "1.133333",
    "size": "medium"
  },
  {
    "iata": "MZL",
    "lon": "-75.46878",
    "iso": "CO",
    "status": 1,
    "name": "La Nubia Airport",
    "continent": "SA",
    "type": "airport",
    "lat": "5.029005",
    "size": "medium"
  },
  {
    "iata": "NCI",
    "lon": "-76.75",
    "iso": "CO",
    "status": 1,
    "name": "Necocli Airport",
    "continent": "SA",
    "type": "airport",
    "lat": "8.483333",
    "size": "small"
  },
  {
    "iata": "NQU",
    "lon": "-77.28333",
    "iso": "CO",
    "status": 1,
    "name": "Reyes Murillo Airport",
    "continent": "SA",
    "type": "airport",
    "lat": "5.7",
    "size": "small"
  },
  {
    "iata": "NVA",
    "lon": "-75.295525",
    "iso": "CO",
    "status": 1,
    "name": "Benito Salas Airport",
    "continent": "SA",
    "type": "airport",
    "lat": "2.946824",
    "size": "medium"
  },
  {
    "iata": "OCV",
    "lon": "-73.333336",
    "iso": "CO",
    "status": 1,
    "name": "Aguas Claras Airport",
    "continent": "SA",
    "type": "airport",
    "lat": "8.25",
    "size": "medium"
  },
  {
    "iata": "ORC",
    "lon": "-71.333336",
    "iso": "CO",
    "status": 1,
    "name": "Orocue Airport",
    "continent": "SA",
    "type": "airport",
    "lat": "4.9",
    "size": "small"
  },
  {
    "iata": "PCR",
    "lon": "-67.63333",
    "iso": "CO",
    "status": 1,
    "name": "German Olano Airport",
    "continent": "SA",
    "type": "airport",
    "lat": "6.183333",
    "size": "medium"
  },
  {
    "iata": "PDA",
    "lon": "-67.88333",
    "iso": "CO",
    "status": 1,
    "name": "Obando Airport",
    "continent": "SA",
    "type": "airport",
    "lat": "3.883333",
    "size": "medium"
  },
  {
    "iata": "PTX",
    "lon": "-76.03333",
    "iso": "CO",
    "status": 1,
    "name": "Pitalito Airport",
    "continent": "SA",
    "type": "airport",
    "lat": "1.85",
    "size": "medium"
  },
  {
    "iata": "PLT",
    "lon": "-74.78333",
    "iso": "CO",
    "status": 1,
    "name": "Plato Airport",
    "continent": "SA",
    "type": "airport",
    "lat": "9.783333",
    "size": "small"
  },
  {
    "iata": "NAR",
    "lon": "-74.583336",
    "iso": "CO",
    "status": 1,
    "name": "Puerto Nare Airport",
    "continent": "SA",
    "type": "airport",
    "lat": "6.2",
    "size": "small"
  },
  {
    "iata": "PQE",
    "iso": "CO",
    "status": 1,
    "name": "German Olano Air Base",
    "continent": "SA",
    "type": "airport",
    "size": "medium"
  },
  {
    "iata": "PBE",
    "lon": "-74.48333",
    "iso": "CO",
    "status": 1,
    "name": "Puerto Berrio Airport",
    "continent": "SA",
    "type": "airport",
    "lat": "6.483333",
    "size": "small"
  },
  {
    "iata": "PSO",
    "lon": "-77.25",
    "iso": "CO",
    "status": 1,
    "name": "Antonio Narino Airport",
    "continent": "SA",
    "type": "airport",
    "lat": "1.466667",
    "size": "medium"
  },
  {
    "iata": "PVA",
    "lon": "-81.35",
    "iso": "CO",
    "status": 1,
    "name": "El Embrujo Airport",
    "continent": "SA",
    "type": "airport",
    "lat": "13.35",
    "size": "medium"
  },
  {
    "iata": "PZA",
    "lon": "-71.885",
    "iso": "CO",
    "status": 1,
    "name": "Paz De Ariporo Airport",
    "continent": "SA",
    "type": "airport",
    "lat": "5.877778",
    "size": "medium"
  },
  {
    "iata": "MQU",
    "lon": "-74.88333",
    "iso": "CO",
    "status": 1,
    "name": "Jose Celestino Mutis Airport",
    "continent": "SA",
    "type": "airport",
    "lat": "5.216667",
    "size": "medium"
  },
  {
    "iata": "RCH",
    "lon": "-72.924446",
    "iso": "CO",
    "status": 1,
    "name": "Almirante Padilla Airport",
    "continent": "SA",
    "type": "airport",
    "lat": "11.529167",
    "size": "medium"
  },
  {
    "iata": "SJE",
    "lon": "-72.666664",
    "iso": "CO",
    "status": 1,
    "name": "Jorge E. Gonzalez Torres Airport",
    "continent": "SA",
    "type": "airport",
    "lat": "2.583333",
    "size": "medium"
  },
  {
    "iata": "SOX",
    "lon": "-72.933334",
    "iso": "CO",
    "status": 1,
    "name": "Alberto Lleras Camargo Airport",
    "continent": "SA",
    "type": "airport",
    "lat": "5.716667",
    "size": "small"
  },
  {
    "iata": "ADZ",
    "lon": "-81.70221",
    "iso": "CO",
    "status": 1,
    "name": "Gustavo Rojas Pinilla International Airport",
    "continent": "SA",
    "type": "airport",
    "lat": "12.586047",
    "size": "medium"
  },
  {
    "iata": "SVI",
    "lon": "-74.76667",
    "iso": "CO",
    "status": 1,
    "name": "Eduardo Falla Solano Airport",
    "continent": "SA",
    "type": "airport",
    "lat": "2.15",
    "size": "medium"
  },
  {
    "iata": "TDA",
    "lon": "-71.72444",
    "iso": "CO",
    "status": 1,
    "name": "Trinidad Airport",
    "continent": "SA",
    "type": "airport",
    "lat": "5.423611",
    "size": "small"
  },
  {
    "iata": "TME",
    "lon": "-71.76667",
    "iso": "CO",
    "status": 1,
    "name": "Gustavo Vargas Airport",
    "continent": "SA",
    "type": "airport",
    "lat": "6.5",
    "size": "medium"
  },
  {
    "iata": "TQS",
    "lon": "-75.23333",
    "iso": "CO",
    "status": 1,
    "name": "Tres Esquinas Air Base",
    "continent": "SA",
    "type": "airport",
    "lat": "0.733333",
    "size": "medium"
  },
  {
    "iata": "AUC",
    "lon": "-70.7425",
    "iso": "CO",
    "status": 1,
    "name": "Santiago Perez Airport",
    "continent": "SA",
    "type": "airport",
    "lat": "7.071667",
    "size": "medium"
  },
  {
    "iata": "ULQ",
    "lon": "-76.229164",
    "iso": "CO",
    "status": 1,
    "name": "Farfan Airport",
    "continent": "SA",
    "type": "airport",
    "lat": "4.097222",
    "size": "medium"
  },
  {
    "iata": "URR",
    "lon": "-76.183334",
    "iso": "CO",
    "status": 1,
    "name": "Urrao Airport",
    "continent": "SA",
    "type": "airport",
    "lat": "6.333333",
    "size": "small"
  },
  {
    "iata": "VVC",
    "lon": "-73.566666",
    "iso": "CO",
    "status": 1,
    "name": "Vanguardia Airport",
    "continent": "SA",
    "type": "airport",
    "lat": "4.078889",
    "size": "medium"
  },
  {
    "iata": "AYG",
    "lon": "-73.933334",
    "iso": "CO",
    "status": 1,
    "name": "Yaguara Airport",
    "continent": "SA",
    "type": "airport",
    "lat": "1.533333",
    "size": "small"
  },
  {
    "iata": "EYP",
    "lon": "-72.386284",
    "iso": "CO",
    "status": 1,
    "name": "El Yopal Airport",
    "continent": "SA",
    "type": "airport",
    "lat": "5.320729",
    "size": "medium"
  },
  {
    "iata": "MHW",
    "lon": "-63.966667",
    "iso": "BO",
    "status": 1,
    "name": "Monteagudo Airport",
    "continent": "SA",
    "type": "airport",
    "lat": "-19.8325",
    "size": "small"
  },
  {
    "iata": "APB",
    "lon": "-68.51667",
    "iso": "BO",
    "status": 1,
    "name": "Apolo Airport",
    "continent": "SA",
    "type": "airport",
    "lat": "-14.716667",
    "size": "small"
  },
  {
    "iata": "BJO",
    "lon": "-64.333336",
    "iso": "BO",
    "status": 1,
    "name": "Bermejo Airport",
    "continent": "SA",
    "type": "airport",
    "lat": "-22.866667",
    "size": "medium"
  },
  {
    "iata": "CAM",
    "lon": "-63.56111",
    "iso": "BO",
    "status": 1,
    "name": "Camiri Airport",
    "continent": "SA",
    "type": "airport",
    "lat": "-20.01111",
    "size": "small"
  },
  {
    "iata": "CBB",
    "lon": "-66.178894",
    "iso": "BO",
    "status": 1,
    "name": "Jorge Wilsterman International Airport",
    "continent": "SA",
    "type": "airport",
    "lat": "-17.413954",
    "size": "medium"
  },
  {
    "iata": "SRZ",
    "lon": "-63.1725",
    "iso": "BO",
    "status": 1,
    "name": "El Trompillo Airport",
    "continent": "SA",
    "type": "airport",
    "lat": "-17.804167",
    "size": "medium"
  },
  {
    "iata": "BVK",
    "lon": "-63.75",
    "iso": "BO",
    "status": 1,
    "name": "Huacaraje Airport",
    "continent": "SA",
    "type": "airport",
    "lat": "-13.55",
    "size": "small"
  },
  {
    "iata": "SJV",
    "lon": "-62.416668",
    "iso": "BO",
    "status": 1,
    "name": "San Javier Airport",
    "continent": "SA",
    "type": "airport",
    "lat": "-16.233334",
    "size": "small"
  },
  {
    "iata": "LPB",
    "lon": "-68.1769",
    "iso": "BO",
    "status": 1,
    "name": "El Alto International Airport",
    "continent": "SA",
    "type": "airport",
    "lat": "-16.50889",
    "size": "medium"
  },
  {
    "iata": "MGD",
    "lon": "-64.124725",
    "iso": "BO",
    "status": 1,
    "name": "Magdalena Airport",
    "continent": "SA",
    "type": "airport",
    "lat": "-13.325278",
    "size": "small"
  },
  {
    "iata": "ORU",
    "lon": "-67.07546",
    "iso": "BO",
    "status": 1,
    "name": "Juan Mendoza Airport",
    "continent": "SA",
    "type": "airport",
    "lat": "-17.963202",
    "size": "medium"
  },
  {
    "iata": "POI",
    "lon": "-65.72361",
    "iso": "BO",
    "status": 1,
    "name": "Capitan Nicolas Rojas Airport",
    "continent": "SA",
    "type": "airport",
    "lat": "-19.543056",
    "size": "medium"
  },
  {
    "iata": "PUR",
    "lon": "-67.52",
    "iso": "BO",
    "status": 1,
    "name": "Puerto Rico Airport",
    "continent": "SA",
    "type": "airport",
    "lat": "-11.1125",
    "size": "small"
  },
  {
    "iata": "REY",
    "lon": "-67.26667",
    "iso": "BO",
    "status": 1,
    "name": "Reyes Airport",
    "continent": "SA",
    "type": "airport",
    "lat": "-14.316667",
    "size": "small"
  },
  {
    "iata": "SBL",
    "lon": "-65.45",
    "iso": "BO",
    "status": 1,
    "name": "Santa Ana Del Yacuma Airport",
    "continent": "SA",
    "type": "airport",
    "lat": "-13.716667",
    "size": "medium"
  },
  {
    "iata": "SNM",
    "lon": "-65.63556",
    "iso": "BO",
    "status": 1,
    "name": "San Ignacio de Moxos Airport",
    "continent": "SA",
    "type": "airport",
    "lat": "-14.966389",
    "size": "small"
  },
  {
    "iata": "SRB",
    "lon": "-67.333336",
    "iso": "BO",
    "status": 1,
    "name": "Santa Rosa De Yacuma Airport",
    "continent": "SA",
    "type": "airport",
    "lat": "-10.6",
    "size": "small"
  },
  {
    "iata": "SRE",
    "lon": "-65.30167",
    "iso": "BO",
    "status": 1,
    "name": "Juana Azurduy De Padilla Airport",
    "continent": "SA",
    "type": "airport",
    "lat": "-19.007778",
    "size": "medium"
  },
  {
    "iata": "TJA",
    "lon": "-64.745834",
    "iso": "BO",
    "status": 1,
    "name": "Capitan Oriel Lea Plaza Airport",
    "continent": "SA",
    "type": "airport",
    "lat": "-21.554167",
    "size": "medium"
  },
  {
    "iata": "TDD",
    "lon": "-64.91931",
    "iso": "BO",
    "status": 1,
    "name": "Teniente Av. Jorge Henrich Arauz Airport",
    "continent": "SA",
    "type": "airport",
    "lat": "-14.822613",
    "size": "medium"
  },
  {
    "iata": "UYU",
    "lon": "-66.8484",
    "iso": "BO",
    "status": 1,
    "name": "Uyuni Airport",
    "continent": "SA",
    "type": "airport",
    "lat": "-20.4463",
    "size": "small"
  },
  {
    "iata": "VVI",
    "lon": "-63.140488",
    "iso": "BO",
    "status": 1,
    "name": "Viru Viru International Airport",
    "continent": "SA",
    "type": "airport",
    "lat": "-17.648233",
    "size": "medium"
  },
  {
    "iata": "BYC",
    "lon": "-63.65",
    "iso": "BO",
    "status": 1,
    "name": "Yacuiba Airport",
    "continent": "SA",
    "type": "airport",
    "lat": "-21.95",
    "size": "medium"
  },
  {
    "iata": "ABN",
    "lon": "-54.083332",
    "iso": "SR",
    "status": 1,
    "name": "Albina Airport",
    "continent": "SA",
    "type": "airport",
    "lat": "5.5",
    "size": "small"
  },
  {
    "iata": "TOT",
    "lon": "-56.316666",
    "iso": "SR",
    "status": 1,
    "name": "Totness Airport",
    "continent": "SA",
    "type": "airport",
    "lat": "5.883333",
    "size": "small"
  },
  {
    "iata": "DRJ",
    "lon": "-54.666668",
    "iso": "SR",
    "status": 1,
    "name": "Drietabbetje Airport",
    "continent": "SA",
    "type": "airport",
    "lat": "4.116667",
    "size": "small"
  },
  {
    "iata": "PBM",
    "lon": "-55.191113",
    "iso": "SR",
    "status": 1,
    "name": "Johan Adolf Pengel International Airport",
    "continent": "SA",
    "type": "airport",
    "lat": "5.451389",
    "size": "medium"
  },
  {
    "iata": "ICK",
    "lon": "-56.983334",
    "iso": "SR",
    "status": 1,
    "name": "Nieuw Nickerie Airport",
    "continent": "SA",
    "type": "airport",
    "lat": "5.933333",
    "size": "small"
  },
  {
    "iata": "OEM",
    "lon": "-55.45",
    "iso": "SR",
    "status": 1,
    "name": "Vincent Fayks Airport",
    "continent": "SA",
    "type": "airport",
    "lat": "3.35",
    "size": "small"
  },
  {
    "iata": "SMZ",
    "lon": "-54.4",
    "iso": "SR",
    "status": 1,
    "name": "Stoelmanseiland Airport",
    "continent": "SA",
    "type": "airport",
    "lat": "4.343056",
    "size": "small"
  },
  {
    "iata": "AGI",
    "lon": "-56.833332",
    "iso": "SR",
    "status": 1,
    "name": "Wageningen Airport Airport",
    "continent": "SA",
    "type": "airport",
    "lat": "5.833333",
    "size": "small"
  },
  {
    "iata": "ORG",
    "lon": "-55.191113",
    "iso": "SR",
    "status": 1,
    "name": "Zorg en Hoop Airport",
    "continent": "SA",
    "type": "airport",
    "lat": "5.809444",
    "size": "small"
  },
  {
    "iata": "APQ",
    "lon": "-36.65",
    "iso": "BR",
    "status": 1,
    "name": "Arapiraca Airport",
    "continent": "SA",
    "type": "airport",
    "lat": "-9.75",
    "size": "small"
  },
  {
    "iata": "AIF",
    "lon": "-50.416668",
    "iso": "BR",
    "status": 1,
    "name": "Marcelo Pires Halzhausen Airport",
    "continent": "SA",
    "type": "airport",
    "lat": "-22.666668",
    "size": "small"
  },
  {
    "iata": "BDC",
    "lon": "-45.266666",
    "iso": "BR",
    "status": 1,
    "name": "Barra do Corda Airport",
    "continent": "SA",
    "type": "airport",
    "lat": "-5.466667",
    "size": "small"
  },
  {
    "iata": "BVM",
    "lon": "-38.916668",
    "iso": "BR",
    "status": 1,
    "name": "Belmonte Airport",
    "continent": "SA",
    "type": "airport",
    "lat": "-15.833333",
    "size": "small"
  },
  {
    "iata": "BRA",
    "lon": "-45.00833",
    "iso": "BR",
    "status": 1,
    "name": "Barreiras Airport",
    "continent": "SA",
    "type": "airport",
    "lat": "-12.073056",
    "size": "small"
  },
  {
    "iata": "BSS",
    "lon": "-46.05",
    "iso": "BR",
    "status": 1,
    "name": "Balsas Airport",
    "continent": "SA",
    "type": "airport",
    "lat": "-7.516667",
    "size": "small"
  },
  {
    "iata": "BQQ",
    "lon": "-43.13333",
    "iso": "BR",
    "status": 1,
    "name": "Barra Airport",
    "continent": "SA",
    "type": "airport",
    "lat": "-11.083333",
    "size": "small"
  },
  {
    "iata": "CTP",
    "lon": "-46.016666",
    "iso": "BR",
    "status": 1,
    "name": "Carutapera Airport",
    "continent": "SA",
    "type": "airport",
    "lat": "-1.25",
    "size": "small"
  },
  {
    "iata": "CPU",
    "lon": "-44.86667",
    "iso": "BR",
    "status": 1,
    "name": "Cururupu Airport",
    "continent": "SA",
    "type": "airport",
    "lat": "-1.8",
    "size": "small"
  },
  {
    "iata": "QCH",
    "iso": "BR",
    "status": 1,
    "name": "Colatina Airport",
    "continent": "SA",
    "type": "airport",
    "size": "small"
  },
  {
    "iata": "LEP",
    "lon": "-42.666668",
    "iso": "BR",
    "status": 1,
    "name": "Leopoldina Airport",
    "continent": "SA",
    "type": "airport",
    "lat": "-21.466667",
    "size": "small"
  },
  {
    "iata": "DIQ",
    "lon": "-44.869446",
    "iso": "BR",
    "status": 1,
    "name": "Divinópolis Airport",
    "continent": "SA",
    "type": "airport",
    "lat": "-20.181389",
    "size": "small"
  },
  {
    "iata": "CNV",
    "lon": "-38.983334",
    "iso": "BR",
    "status": 1,
    "name": "Canavieiras Airport",
    "continent": "SA",
    "type": "airport",
    "lat": "-15.666667",
    "size": "small"
  },
  {
    "iata": "ODL",
    "lon": "140.63333",
    "iso": "BR",
    "status": 1,
    "name": "Guarapari Airport",
    "continent": "SA",
    "type": "airport",
    "lat": "-26.716667",
    "size": "small"
  },
  {
    "iata": "GDP",
    "lon": "-43.58167",
    "iso": "BR",
    "status": 1,
    "name": "Guadalupe Airport",
    "continent": "SA",
    "type": "airport",
    "lat": "-6.781944",
    "size": "small"
  },
  {
    "iata": "GNM",
    "lon": "-42.783333",
    "iso": "BR",
    "status": 1,
    "name": "Guanambi Airport",
    "continent": "SA",
    "type": "airport",
    "lat": "-14.3",
    "size": "small"
  },
  {
    "iata": "QGP",
    "lon": "-36.65",
    "iso": "BR",
    "status": 1,
    "name": "Garanhuns Airport",
    "continent": "SA",
    "type": "airport",
    "lat": "-8.911111",
    "size": "small"
  },
  {
    "iata": "QIG",
    "lon": "-39.43611",
    "iso": "BR",
    "status": 1,
    "name": "Iguatu Airport",
    "continent": "SA",
    "type": "airport",
    "lat": "-6.477778",
    "size": "small"
  },
  {
    "iata": "QIT",
    "lon": "-40.36111",
    "iso": "BR",
    "status": 1,
    "name": "Itapetinga Airport",
    "continent": "SA",
    "type": "airport",
    "lat": "-15.338889",
    "size": "small"
  },
  {
    "iata": "JCM",
    "lon": "-40.516666",
    "iso": "BR",
    "status": 1,
    "name": "Jacobina Airport",
    "continent": "SA",
    "type": "airport",
    "lat": "-11.183333",
    "size": "small"
  },
  {
    "iata": "FEC",
    "lon": "-38.906113",
    "iso": "BR",
    "status": 1,
    "name": "Feira de Santana Airport",
    "continent": "SA",
    "type": "airport",
    "lat": "-12.2025",
    "size": "small"
  },
  {
    "iata": "JDR",
    "lon": "-44.2301",
    "iso": "BR",
    "status": 1,
    "name": "São João del-Rei Airport",
    "continent": "SA",
    "type": "airport",
    "lat": "-21.087957",
    "size": "small"
  },
  {
    "iata": "CMP",
    "lon": "-36.35",
    "iso": "BR",
    "status": 1,
    "name": "Santana do Araguaia Airport",
    "continent": "SA",
    "type": "airport",
    "lat": "-9.8",
    "size": "small"
  },
  {
    "iata": "QDF",
    "lon": "-43.930557",
    "iso": "BR",
    "status": 1,
    "name": "Conselheiro Lafaiete Airport",
    "continent": "SA",
    "type": "airport",
    "lat": "-20.786112",
    "size": "small"
  },
  {
    "iata": "QXD",
    "lon": "-41.225",
    "iso": "BR",
    "status": 1,
    "name": "Cachoeiro do Itapemirim Airport",
    "continent": "SA",
    "type": "airport",
    "lat": "-20.866667",
    "size": "small"
  },
  {
    "iata": "QCP",
    "lon": "-36.60278",
    "iso": "BR",
    "status": 1,
    "name": "Currais Novos Airport",
    "continent": "SA",
    "type": "airport",
    "lat": "-6.408333",
    "size": "small"
  },
  {
    "iata": "LVB",
    "lon": "-55.61667",
    "iso": "BR",
    "status": 1,
    "name": "Livramento do Brumado Airport",
    "continent": "SA",
    "type": "airport",
    "lat": "-30.833332",
    "size": "small"
  },
  {
    "iata": "MTE",
    "lon": "-54.066666",
    "iso": "BR",
    "status": 1,
    "name": "Monte Alegre Airport",
    "continent": "SA",
    "type": "airport",
    "lat": "-1.983333",
    "size": "small"
  },
  {
    "iata": "MVS",
    "lon": "-39.566666",
    "iso": "BR",
    "status": 1,
    "name": "Mucuri Airport",
    "continent": "SA",
    "type": "airport",
    "lat": "-18.083332",
    "size": "small"
  },
  {
    "iata": "SBJ",
    "lon": "-39.733334",
    "iso": "BR",
    "status": 1,
    "name": "São Mateus Airport",
    "continent": "SA",
    "type": "airport",
    "lat": "-18.583332",
    "size": "small"
  },
  {
    "iata": "PTQ",
    "lon": "-52.244446",
    "iso": "BR",
    "status": 1,
    "name": "Porto de Moz Airport",
    "continent": "SA",
    "type": "airport",
    "lat": "-1.738889",
    "size": "small"
  },
  {
    "iata": "NNU",
    "lon": "-40.333332",
    "iso": "BR",
    "status": 1,
    "name": "Nanuque Airport",
    "continent": "SA",
    "type": "airport",
    "lat": "-17.816668",
    "size": "small"
  },
  {
    "iata": "QBX",
    "lon": "-40.36667",
    "iso": "BR",
    "status": 1,
    "name": "Sobral Airport",
    "continent": "SA",
    "type": "airport",
    "lat": "-3.781521",
    "size": "small"
  },
  {
    "iata": "PCS",
    "lon": "-41.466667",
    "iso": "BR",
    "status": 1,
    "name": "Picos Airport",
    "continent": "SA",
    "type": "airport",
    "lat": "-7.083333",
    "size": "small"
  },
  {
    "iata": "POJ",
    "lon": "-46.490833",
    "iso": "BR",
    "status": 1,
    "name": "Patos de Minas Airport",
    "continent": "SA",
    "type": "airport",
    "lat": "-18.671667",
    "size": "small"
  },
  {
    "iata": "PIV",
    "lon": "-44.93222",
    "iso": "BR",
    "status": 1,
    "name": "Pirapora Airport",
    "continent": "SA",
    "type": "airport",
    "lat": "-17.338612",
    "size": "small"
  },
  {
    "iata": "FLB",
    "lon": "-43.033333",
    "iso": "BR",
    "status": 1,
    "name": "Cangapara Airport",
    "continent": "SA",
    "type": "airport",
    "lat": "-6.8",
    "size": "small"
  },
  {
    "iata": "JDO",
    "iso": "BR",
    "status": 1,
    "name": "Juazeiro do Norte Airport",
    "continent": "SA",
    "type": "airport",
    "size": "small"
  },
  {
    "iata": "PDF",
    "lon": "-39.216667",
    "iso": "BR",
    "status": 1,
    "name": "Prado Airport",
    "continent": "SA",
    "type": "airport",
    "lat": "-17.35",
    "size": "small"
  },
  {
    "iata": "CAU",
    "lon": "-35.916668",
    "iso": "BR",
    "status": 1,
    "name": "Caruaru Airport",
    "continent": "SA",
    "type": "airport",
    "lat": "-8.25",
    "size": "small"
  },
  {
    "iata": "SFK",
    "lon": "-48.52222",
    "iso": "BR",
    "status": 1,
    "name": "Soure Airport",
    "continent": "SA",
    "type": "airport",
    "lat": "-0.7",
    "size": "small"
  },
  {
    "iata": "TFL",
    "lon": "-41.5",
    "iso": "BR",
    "status": 1,
    "name": "Juscelino Kubitscheck Airport",
    "continent": "SA",
    "type": "airport",
    "lat": "-17.85",
    "size": "small"
  },
  {
    "iata": "VAL",
    "lon": "-38.988876",
    "iso": "BR",
    "status": 1,
    "name": "Valença Airport",
    "continent": "SA",
    "type": "airport",
    "lat": "-13.295259",
    "size": "small"
  },
  {
    "iata": "BVS",
    "lon": "-50.466667",
    "iso": "BR",
    "status": 1,
    "name": "Breves Airport",
    "continent": "SA",
    "type": "airport",
    "lat": "-1.666667",
    "size": "small"
  },
  {
    "iata": "CMC",
    "lon": "-40.833332",
    "iso": "BR",
    "status": 1,
    "name": "Camocim Airport",
    "continent": "SA",
    "type": "airport",
    "lat": "-2.916667",
    "size": "small"
  },
  {
    "iata": "PHI",
    "lon": "-45.083332",
    "iso": "BR",
    "status": 1,
    "name": "Pinheiro Airport",
    "continent": "SA",
    "type": "airport",
    "lat": "-2.516667",
    "size": "small"
  },
  {
    "iata": "PPY",
    "lon": "-45.918888",
    "iso": "BR",
    "status": 1,
    "name": "Pouso Alegre Airport",
    "continent": "SA",
    "type": "airport",
    "lat": "-22.288334",
    "size": "small"
  },
  {
    "iata": "APU",
    "lon": "-51.483334",
    "iso": "BR",
    "status": 1,
    "name": "Apucarana Airport",
    "continent": "SA",
    "type": "airport",
    "lat": "-23.55",
    "size": "small"
  },
  {
    "iata": "BNU",
    "lon": "-49.0",
    "iso": "BR",
    "status": 1,
    "name": "Blumenau Airport",
    "continent": "SA",
    "type": "airport",
    "lat": "-27.0",
    "size": "small"
  },
  {
    "iata": "QCN",
    "lon": "-50.922222",
    "iso": "BR",
    "status": 1,
    "name": "Canela Airport",
    "continent": "SA",
    "type": "airport",
    "lat": "-29.497223",
    "size": "small"
  },
  {
    "iata": "DOU",
    "lon": "-54.925556",
    "iso": "BR",
    "status": 1,
    "name": "Dourados Airport",
    "continent": "SA",
    "type": "airport",
    "lat": "-22.202778",
    "size": "small"
  },
  {
    "iata": "ERM",
    "lon": "-52.275555",
    "iso": "BR",
    "status": 1,
    "name": "Erechim Airport",
    "continent": "SA",
    "type": "airport",
    "lat": "-27.641666",
    "size": "small"
  },
  {
    "iata": "ITQ",
    "lon": "-56.55",
    "iso": "BR",
    "status": 1,
    "name": "Itaqui Airport",
    "continent": "SA",
    "type": "airport",
    "lat": "-29.133333",
    "size": "small"
  },
  {
    "iata": "JCB",
    "lon": "-51.516666",
    "iso": "BR",
    "status": 1,
    "name": "Santa Terezinha Airport",
    "continent": "SA",
    "type": "airport",
    "lat": "-27.166668",
    "size": "small"
  },
  {
    "iata": "QDB",
    "lon": "-53.002777",
    "iso": "BR",
    "status": 1,
    "name": "Cachoeira do Sul Airport",
    "continent": "SA",
    "type": "airport",
    "lat": "-30.022223",
    "size": "small"
  },
  {
    "iata": "QCR",
    "lon": "-50.71389",
    "iso": "BR",
    "status": 1,
    "name": "Curitibanos Airport",
    "continent": "SA",
    "type": "airport",
    "lat": "-27.425",
    "size": "small"
  },
  {
    "iata": "QRE",
    "lon": "-52.955555",
    "iso": "BR",
    "status": 1,
    "name": "Carazinho Airport",
    "continent": "SA",
    "type": "airport",
    "lat": "-28.36389",
    "size": "small"
  },
  {
    "iata": "ALQ",
    "lon": "-55.763332",
    "iso": "BR",
    "status": 1,
    "name": "Alegrete Novo Airport",
    "continent": "SA",
    "type": "airport",
    "lat": "-29.799723",
    "size": "small"
  },
  {
    "iata": "QMF",
    "lon": "-49.97222",
    "iso": "BR",
    "status": 1,
    "name": "Mafra Airport",
    "continent": "SA",
    "type": "airport",
    "lat": "-26.23889",
    "size": "small"
  },
  {
    "iata": "QGF",
    "lon": "-51.544445",
    "iso": "BR",
    "status": 1,
    "name": "Montenegro Airport",
    "continent": "SA",
    "type": "airport",
    "lat": "-29.744444",
    "size": "small"
  },
  {
    "iata": "QHV",
    "lon": "-51.216667",
    "iso": "BR",
    "status": 1,
    "name": "Novo Hamburgo Airport",
    "continent": "SA",
    "type": "airport",
    "lat": "-29.811111",
    "size": "small"
  },
  {
    "iata": "APX",
    "lon": "-51.466667",
    "iso": "BR",
    "status": 1,
    "name": "Arapongas Airport",
    "continent": "SA",
    "type": "airport",
    "lat": "-23.483334",
    "size": "small"
  },
  {
    "iata": "PTO",
    "lon": "-52.666668",
    "iso": "BR",
    "status": 1,
    "name": "Pato Branco Airport",
    "continent": "SA",
    "type": "airport",
    "lat": "-26.216667",
    "size": "small"
  },
  {
    "iata": "QAC",
    "lon": "-50.052776",
    "iso": "BR",
    "status": 1,
    "name": "Castro Airport",
    "continent": "SA",
    "type": "airport",
    "lat": "-24.875",
    "size": "small"
  },
  {
    "iata": "CSU",
    "lon": "-52.416668",
    "iso": "BR",
    "status": 1,
    "name": "Santa Cruz do Sul Airport",
    "continent": "SA",
    "type": "airport",
    "lat": "-29.683332",
    "size": "small"
  },
  {
    "iata": "UMU",
    "lon": "-53.31333",
    "iso": "BR",
    "status": 1,
    "name": "Umuarama Airport",
    "continent": "SA",
    "type": "airport",
    "lat": "-23.798332",
    "size": "small"
  },
  {
    "iata": "VIA",
    "lon": "-51.136112",
    "iso": "BR",
    "status": 1,
    "name": "Videira Airport",
    "continent": "SA",
    "type": "airport",
    "lat": "-27.008333",
    "size": "small"
  },
  {
    "iata": "AAG",
    "lon": "-49.79",
    "iso": "BR",
    "status": 1,
    "name": "Arapoti Airport",
    "continent": "SA",
    "type": "airport",
    "lat": "-24.103611",
    "size": "small"
  },
  {
    "iata": "SRA",
    "lon": "-54.483334",
    "iso": "BR",
    "status": 1,
    "name": "Santa Rosa Airport",
    "continent": "SA",
    "type": "airport",
    "lat": "-27.866667",
    "size": "small"
  },
  {
    "iata": "PGZ",
    "lon": "-50.15",
    "iso": "BR",
    "status": 1,
    "name": "Ponta Grossa Airport",
    "continent": "SA",
    "type": "airport",
    "lat": "-25.083332",
    "size": "small"
  },
  {
    "iata": "BAZ",
    "lon": "-62.933613",
    "iso": "BR",
    "status": 1,
    "name": "Barcelos Airport",
    "continent": "SA",
    "type": "airport",
    "lat": "-0.966944",
    "size": "small"
  },
  {
    "iata": "RBB",
    "lon": "-59.583332",
    "iso": "BR",
    "status": 1,
    "name": "Borba Airport",
    "continent": "SA",
    "type": "airport",
    "lat": "-4.4",
    "size": "small"
  },
  {
    "iata": "CAF",
    "lon": "-66.916664",
    "iso": "BR",
    "status": 1,
    "name": "Carauari Airport",
    "continent": "SA",
    "type": "airport",
    "lat": "-4.9",
    "size": "small"
  },
  {
    "iata": "CQS",
    "lon": "-64.25",
    "iso": "BR",
    "status": 1,
    "name": "Costa Marques Airport",
    "continent": "SA",
    "type": "airport",
    "lat": "-12.416667",
    "size": "small"
  },
  {
    "iata": "DMT",
    "lon": "-56.5",
    "iso": "BR",
    "status": 1,
    "name": "Diamantino Airport",
    "continent": "SA",
    "type": "airport",
    "lat": "-14.5",
    "size": "small"
  },
  {
    "iata": "ERN",
    "lon": "-69.88333",
    "iso": "BR",
    "status": 1,
    "name": "Eirunepé Airport",
    "continent": "SA",
    "type": "airport",
    "lat": "-6.583333",
    "size": "small"
  },
  {
    "iata": "CQA",
    "lon": "-52.27028",
    "iso": "BR",
    "status": 1,
    "name": "Canarana Airport",
    "continent": "SA",
    "type": "airport",
    "lat": "-13.574167",
    "size": "small"
  },
  {
    "iata": "GRP",
    "lon": "-49.216667",
    "iso": "BR",
    "status": 1,
    "name": "Gurupi Airport",
    "continent": "SA",
    "type": "airport",
    "lat": "-11.666667",
    "size": "small"
  },
  {
    "iata": "AUX",
    "lon": "-48.2",
    "iso": "BR",
    "status": 1,
    "name": "Araguaína Airport",
    "continent": "SA",
    "type": "airport",
    "lat": "-7.2",
    "size": "small"
  },
  {
    "iata": "IPG",
    "lon": "-65.95",
    "iso": "BR",
    "status": 1,
    "name": "Ipiranga Airport",
    "continent": "SA",
    "type": "airport",
    "lat": "-3.216667",
    "size": "small"
  },
  {
    "iata": "IDO",
    "lon": "-50.666668",
    "iso": "BR",
    "status": 1,
    "name": "Santa Izabel do Morro Airport",
    "continent": "SA",
    "type": "airport",
    "lat": "-11.566667",
    "size": "small"
  },
  {
    "iata": "JPR",
    "lon": "-61.84667",
    "iso": "BR",
    "status": 1,
    "name": "Ji Paraná Airport",
    "continent": "SA",
    "type": "airport",
    "lat": "-10.870556",
    "size": "small"
  },
  {
    "iata": "JRN",
    "lon": "-58.488888",
    "iso": "BR",
    "status": 1,
    "name": "Juruena Airport",
    "continent": "SA",
    "type": "airport",
    "lat": "-10.305556",
    "size": "small"
  },
  {
    "iata": "CIZ",
    "lon": "-63.13333",
    "iso": "BR",
    "status": 1,
    "name": "Coari Airport",
    "continent": "SA",
    "type": "airport",
    "lat": "-4.083333",
    "size": "small"
  },
  {
    "iata": "TLZ",
    "lon": "-47.95",
    "iso": "BR",
    "status": 1,
    "name": "Catalão Airport",
    "continent": "SA",
    "type": "airport",
    "lat": "-18.166668",
    "size": "small"
  },
  {
    "iata": "LBR",
    "lon": "-64.85",
    "iso": "BR",
    "status": 1,
    "name": "Lábrea Airport",
    "continent": "SA",
    "type": "airport",
    "lat": "-7.25",
    "size": "small"
  },
  {
    "iata": "RVD",
    "lon": "-50.933334",
    "iso": "BR",
    "status": 1,
    "name": "General Leite de Castro Airport",
    "continent": "SA",
    "type": "airport",
    "lat": "-17.716667",
    "size": "small"
  },
  {
    "iata": "MBZ",
    "lon": "-57.7",
    "iso": "BR",
    "status": 1,
    "name": "Maués Airport",
    "continent": "SA",
    "type": "airport",
    "lat": "-3.4",
    "size": "small"
  },
  {
    "iata": "NVP",
    "lon": "-60.36667",
    "iso": "BR",
    "status": 1,
    "name": "Novo Aripuanã Airport",
    "continent": "SA",
    "type": "airport",
    "lat": "-5.133333",
    "size": "small"
  },
  {
    "iata": "AQM",
    "lon": "-63.066666",
    "iso": "BR",
    "status": 1,
    "name": "Nova Vida Airport",
    "continent": "SA",
    "type": "airport",
    "lat": "-9.933333",
    "size": "small"
  },
  {
    "iata": "BCR",
    "lon": "-67.38333",
    "iso": "BR",
    "status": 1,
    "name": "Novo Campo Airport",
    "continent": "SA",
    "type": "airport",
    "lat": "-8.75",
    "size": "small"
  },
  {
    "iata": "PIN",
    "lon": "-56.770027",
    "iso": "BR",
    "status": 1,
    "name": "Parintins Airport",
    "continent": "SA",
    "type": "airport",
    "lat": "-2.669208",
    "size": "small"
  },
  {
    "iata": "PMW",
    "lon": "-48.35278",
    "iso": "BR",
    "status": 1,
    "name": "Palmas Airport",
    "continent": "SA",
    "type": "airport",
    "lat": "-10.241667",
    "size": "small"
  },
  {
    "iata": "PBQ",
    "lon": "-61.2",
    "iso": "BR",
    "status": 1,
    "name": "Pimenta Bueno Airport",
    "continent": "SA",
    "type": "airport",
    "lat": "-11.7",
    "size": "small"
  },
  {
    "iata": "AAI",
    "lon": "-46.933334",
    "iso": "BR",
    "status": 1,
    "name": "Arraias Airport",
    "continent": "SA",
    "type": "airport",
    "lat": "-12.916667",
    "size": "small"
  },
  {
    "iata": "ROO",
    "lon": "-54.716667",
    "iso": "BR",
    "status": 1,
    "name": "Rondonópolis Airport",
    "continent": "SA",
    "type": "airport",
    "lat": "-16.433332",
    "size": "small"
  },
  {
    "iata": "OPS",
    "lon": "-55.58156",
    "iso": "BR",
    "status": 1,
    "name": "Sinop Airport",
    "continent": "SA",
    "type": "airport",
    "lat": "-11.878573",
    "size": "small"
  },
  {
    "iata": "STZ",
    "lon": "-50.45",
    "iso": "BR",
    "status": 1,
    "name": "Santa Terezinha Airport",
    "continent": "SA",
    "type": "airport",
    "lat": "-10.300278",
    "size": "small"
  },
  {
    "iata": "IRZ",
    "lon": "-64.996025",
    "iso": "BR",
    "status": 1,
    "name": "Tapuruquara Airport",
    "continent": "SA",
    "type": "airport",
    "lat": "-0.380296",
    "size": "small"
  },
  {
    "iata": "QHN",
    "lon": "-46.405556",
    "iso": "BR",
    "status": 1,
    "name": "Taguatinga Airport",
    "continent": "SA",
    "type": "airport",
    "lat": "-12.438889",
    "size": "small"
  },
  {
    "iata": "VLP",
    "lon": "-51.122223",
    "iso": "BR",
    "status": 1,
    "name": "Vila Rica Airport",
    "continent": "SA",
    "type": "airport",
    "lat": "-10.015556",
    "size": "small"
  },
  {
    "iata": "MBK",
    "lon": "-54.932777",
    "iso": "BR",
    "status": 1,
    "name": "Regional Orlando Villas Boas Airport",
    "continent": "SA",
    "type": "airport",
    "lat": "-10.0575",
    "size": "small"
  },
  {
    "iata": "NOK",
    "lon": "-52.34861",
    "iso": "BR",
    "status": 1,
    "name": "Xavantina Airport",
    "continent": "SA",
    "type": "airport",
    "lat": "-14.690278",
    "size": "small"
  }
]